[
    {
      "name": "Aruba",
      "minLat": 12.1702998,
      "maxLat": 12.8102998,
      "minLng": -70.2809842,
      "maxLng": -69.6409842
    },
    {
      "name": "Afghanistan",
      "minLat": 29.3772,
      "maxLat": 38.4910682,
      "minLng": 60.5176034,
      "maxLng": 74.889862
    },
    {
      "name": "Angola",
      "minLat": -18.038945,
      "maxLat": -4.3880634,
      "minLng": 11.4609793,
      "maxLng": 24.0878856
    },
    {
      "name": "Anguilla",
      "minLat": 18.0615454,
      "maxLat": 18.7951194,
      "minLng": -63.6391992,
      "maxLng": -62.7125449
    },
    {
      "name": "Åland Islands",
      "minLat": 59.4541578,
      "maxLat": 60.87665,
      "minLng": 19.0832098,
      "maxLng": 21.3456556
    },
    {
      "name": "Albania",
      "minLat": 11.081041,
      "maxLat": 11.408791,
      "minLng": -72.6598913,
      "maxLng": -72.4039128
    },
    {
      "name": "Andorra",
      "minLat": 42.4288238,
      "maxLat": 42.6559357,
      "minLng": 1.4135781,
      "maxLng": 1.7863837
    },
    {
      "name": "Netherlands Antilles",
      "minLat": 12.1544542,
      "maxLat": 12.1547472,
      "minLng": -68.940593,
      "maxLng": -68.9403518
    },
    {
      "name": "United Arab Emirates",
      "minLat": 22.6444,
      "maxLat": 26.2822,
      "minLng": 51.498,
      "maxLng": 56.3834
    },
    {
      "name": "Argentina",
      "minLat": -55.1850761,
      "maxLat": -21.781168,
      "minLng": -73.5600329,
      "maxLng": -53.6374515
    },
    {
      "name": "Armenia",
      "minLat": 4.3951997,
      "maxLat": 4.5895768,
      "minLng": -75.7854388,
      "maxLng": -75.6325211
    },
    {
      "name": "American Samoa",
      "minLat": -14.7608358,
      "maxLat": -10.8449746,
      "minLng": -171.2951296,
      "maxLng": -167.9322899
    },
    {
      "name": "Antarctica",
      "minLat": -85.0511287,
      "maxLat": -60,
      "minLng": -180,
      "maxLng": 180
    },
    {
      "name": "French Southern Territories",
      "minLat": -50.2187169,
      "maxLat": -11.3139928,
      "minLng": 39.4138676,
      "maxLng": 77.8494974
    },
    {
      "name": "Antigua and Barbuda",
      "minLat": 16.7573901,
      "maxLat": 17.929,
      "minLng": -62.5536517,
      "maxLng": -61.447857
    },
    {
      "name": "Australia",
      "minLat": -55.3228175,
      "maxLat": -9.0882278,
      "minLng": 72.2460938,
      "maxLng": 168.2249543
    },
    {
      "name": "Austria",
      "minLat": 46.3722761,
      "maxLat": 49.0205305,
      "minLng": 9.5307487,
      "maxLng": 17.160776
    },
    {
      "name": "Azerbaijan",
      "minLat": 38.3929551,
      "maxLat": 41.9502947,
      "minLng": 44.7633701,
      "maxLng": 51.0090302
    },
    {
      "name": "Burundi",
      "minLat": -4.4693155,
      "maxLat": -2.3096796,
      "minLng": 29.0007401,
      "maxLng": 30.8498462
    },
    {
      "name": "Belgium",
      "minLat": 49.4969821,
      "maxLat": 51.5516667,
      "minLng": 2.3889137,
      "maxLng": 6.408097
    },
    {
      "name": "Benin",
      "minLat": 6.1730586,
      "maxLat": 6.4930586,
      "minLng": 5.4621058,
      "maxLng": 5.7821058
    },
    {
      "name": "Burkina Faso",
      "minLat": 9.4104718,
      "maxLat": 15.084,
      "minLng": -5.5132416,
      "maxLng": 2.4089717
    },
    {
      "name": "Bangladesh",
      "minLat": 20.3756582,
      "maxLat": 26.6382534,
      "minLng": 88.0075306,
      "maxLng": 92.6804979
    },
    {
      "name": "Bulgaria",
      "minLat": 41.2353929,
      "maxLat": 44.2167064,
      "minLng": 22.3571459,
      "maxLng": 28.8875409
    },
    {
      "name": "Bahrain",
      "minLat": 35.1878012,
      "maxLat": 35.2278012,
      "minLng": 72.5273968,
      "maxLng": 72.5673968
    },
    {
      "name": "Bahamas",
      "minLat": 20.7059846,
      "maxLat": 27.4734551,
      "minLng": -80.7001941,
      "maxLng": -72.4477521
    },
    {
      "name": "Bosnia and Herzegovina",
      "minLat": 42.5553114,
      "maxLat": 45.2764135,
      "minLng": 15.7287433,
      "maxLng": 19.6237311
    },
    {
      "name": "Saint Barthélemy",
      "minLat": 17.670931,
      "maxLat": 18.1375569,
      "minLng": -63.06639,
      "maxLng": -62.5844019
    },
    {
      "name": "Belarus",
      "minLat": 51.2575982,
      "maxLat": 56.17218,
      "minLng": 23.1783344,
      "maxLng": 32.7627809
    },
    {
      "name": "Belize",
      "minLat": 15.8857286,
      "maxLat": 18.496001,
      "minLng": -89.2262083,
      "maxLng": -87.3098494
    },
    {
      "name": "Bermuda",
      "minLat": 32.0469651,
      "maxLat": 32.5913693,
      "minLng": -65.1232222,
      "maxLng": -64.4109842
    },
    {
      "name": "Bolivia, Plurinational State of",
      "minLat": -22.8982742,
      "maxLat": -9.6689438,
      "minLng": -69.6450073,
      "maxLng": -57.453
    },
    {
      "name": "Brazil",
      "minLat": -33.8689056,
      "maxLat": 5.2842873,
      "minLng": -73.9830625,
      "maxLng": -28.6341164
    },
    {
      "name": "Barbados",
      "minLat": 12.845,
      "maxLat": 13.535,
      "minLng": -59.8562115,
      "maxLng": -59.2147175
    },
    {
      "name": "Brunei Darussalam",
      "minLat": 4.002508,
      "maxLat": 5.1011857,
      "minLng": 114.0758734,
      "maxLng": 115.3635623
    },
    {
      "name": "Bhutan",
      "minLat": 26.702016,
      "maxLat": 28.246987,
      "minLng": 88.7464724,
      "maxLng": 92.1252321
    },
    {
      "name": "Bouvet Island",
      "minLat": -54.654,
      "maxLat": -54.187,
      "minLng": 2.9345531,
      "maxLng": 3.7791099
    },
    {
      "name": "Botswana",
      "minLat": -26.9059669,
      "maxLat": -17.778137,
      "minLng": 19.9986474,
      "maxLng": 29.375304
    },
    {
      "name": "Central African Republic",
      "minLat": 25.217277,
      "maxLat": 25.2194356,
      "minLng": 55.1742999,
      "maxLng": 55.1762608
    },
    {
      "name": "Canada",
      "minLat": 41.6765556,
      "maxLat": 83.3362128,
      "minLng": -141.00275,
      "maxLng": -52.3231981
    },
    {
      "name": "Cocos (Keeling) Islands",
      "minLat": -12.4055983,
      "maxLat": -11.6213132,
      "minLng": 96.612524,
      "maxLng": 97.1357343
    },
    {
      "name": "Switzerland",
      "minLat": 45.817995,
      "maxLat": 47.8084648,
      "minLng": 5.9559113,
      "maxLng": 10.4922941
    },
    {
      "name": "Chile",
      "minLat": -56.725,
      "maxLat": -17.4983998,
      "minLng": -109.6795789,
      "maxLng": -66.0753474
    },
    {
      "name": "China",
      "minLat": 25.0671341,
      "maxLat": 25.9161824,
      "minLng": -99.4612273,
      "maxLng": -98.421576
    },
    {
      "name": "Côte d'Ivoire",
      "minLat": 4.1621205,
      "maxLat": 10.740197,
      "minLng": -8.601725,
      "maxLng": -2.493031
    },
    {
      "name": "Cameroon",
      "minLat": 1.6546659,
      "maxLat": 13.083333,
      "minLng": 8.3822176,
      "maxLng": 16.1921476
    },
    {
      "name": "Congo, the Democratic Republic of the",
      "minLat": -4.2726671,
      "maxLat": -4.2723703,
      "minLng": 15.2829578,
      "maxLng": 15.283136
    },
    {
      "name": "Congo",
      "minLat": -5.149089,
      "maxLat": 3.713056,
      "minLng": 11.0048205,
      "maxLng": 18.643611
    },
    {
      "name": "Cook Islands",
      "minLat": -22.15807,
      "maxLat": -8.7168792,
      "minLng": -166.0856468,
      "maxLng": -157.1089329
    },
    {
      "name": "Colombia",
      "minLat": -4.2316872,
      "maxLat": 16.0571269,
      "minLng": -82.1243666,
      "maxLng": -66.8511907
    },
    {
      "name": "Comoros",
      "minLat": -12.621,
      "maxLat": -11.165,
      "minLng": 43.025305,
      "maxLng": 44.7451922
    },
    {
      "name": "Cape Verde",
      "minLat": 14.8031546,
      "maxLat": 17.2053108,
      "minLng": -25.3609478,
      "maxLng": -22.6673416
    },
    {
      "name": "Costa Rica",
      "minLat": 5.3329698,
      "maxLat": 11.2195684,
      "minLng": -87.2722647,
      "maxLng": -82.5060208
    },
    {
      "name": "Cuba",
      "minLat": 19.6275294,
      "maxLat": 23.4816972,
      "minLng": -85.1679702,
      "maxLng": -73.9190004
    },
    {
      "name": "Christmas Island",
      "minLat": -10.5698515,
      "maxLat": -10.4123553,
      "minLng": 105.5336422,
      "maxLng": 105.7130159
    },
    {
      "name": "Cayman Islands",
      "minLat": 19.0620619,
      "maxLat": 19.9573759,
      "minLng": -81.6313748,
      "maxLng": -79.5110954
    },
    {
      "name": "Cyprus",
      "minLat": 27.4823018,
      "maxLat": 42.4823018,
      "minLng": 25.6451285,
      "maxLng": 40.6451285
    },
    {
      "name": "Czech Republic",
      "minLat": 48.5518083,
      "maxLat": 51.0557036,
      "minLng": 12.0905901,
      "maxLng": 18.859216
    },
    {
      "name": "Germany",
      "minLat": 47.2701114,
      "maxLat": 55.099161,
      "minLng": 5.8663153,
      "maxLng": 15.0419319
    },
    {
      "name": "Djibouti",
      "minLat": 10.9149547,
      "maxLat": 12.7923081,
      "minLng": 41.7713139,
      "maxLng": 43.6579046
    },
    {
      "name": "Dominica",
      "minLat": 15.0074207,
      "maxLat": 15.7872222,
      "minLng": -61.6869184,
      "maxLng": -61.0329895
    },
    {
      "name": "Denmark",
      "minLat": 54.4516667,
      "maxLat": 57.9524297,
      "minLng": 7.7153255,
      "maxLng": 15.5530641
    },
    {
      "name": "Dominican Republic",
      "minLat": 17.2701708,
      "maxLat": 21.303433,
      "minLng": -72.0574706,
      "maxLng": -68.1101463
    },
    {
      "name": "Algeria",
      "minLat": 18.968147,
      "maxLat": 37.2962055,
      "minLng": -8.668908,
      "maxLng": 11.997337
    },
    {
      "name": "Ecuador",
      "minLat": -5.0159314,
      "maxLat": 1.8835964,
      "minLng": -92.2072392,
      "maxLng": -75.192504
    },
    {
      "name": "Egypt",
      "minLat": 22,
      "maxLat": 31.8330854,
      "minLng": 24.6499112,
      "maxLng": 37.1153517
    },
    {
      "name": "Eritrea",
      "minLat": 25.2197993,
      "maxLat": 25.2220008,
      "minLng": 55.1720522,
      "maxLng": 55.1736716
    },
    {
      "name": "Western Sahara",
      "minLat": 24.1597324,
      "maxLat": 24.1997324,
      "minLng": -13.7867848,
      "maxLng": -13.7467848
    },
    {
      "name": "Spain",
      "minLat": 27.4335426,
      "maxLat": 43.9933088,
      "minLng": -18.3936845,
      "maxLng": 4.5918885
    },
    {
      "name": "Estonia",
      "minLat": 57.5092997,
      "maxLat": 59.9383754,
      "minLng": 21.3826069,
      "maxLng": 28.2100175
    },
    {
      "name": "Ethiopia",
      "minLat": 3.397448,
      "maxLat": 14.8940537,
      "minLng": 32.9975838,
      "maxLng": 47.9823797
    },
    {
      "name": "Finland",
      "minLat": 59.4541578,
      "maxLat": 70.0922939,
      "minLng": 19.0832098,
      "maxLng": 31.5867071
    },
    {
      "name": "Fiji",
      "minLat": -21.9434274,
      "maxLat": -12.2613866,
      "minLng": -180,
      "maxLng": 180
    },
    {
      "name": "Falkland Islands (Malvinas)",
      "minLat": -53.1186766,
      "maxLat": -50.7973007,
      "minLng": -61.7726772,
      "maxLng": -57.3662367
    },
    {
      "name": "France",
      "minLat": 41.2632185,
      "maxLat": 51.268318,
      "minLng": -5.4534286,
      "maxLng": 9.8678344
    },
    {
      "name": "Faroe Islands",
      "minLat": 61.3915553,
      "maxLat": 62.3942991,
      "minLng": -7.6882939,
      "maxLng": -6.2565525
    },
    {
      "name": "Micronesia, Federated States of",
      "minLat": 0.827,
      "maxLat": 10.291,
      "minLng": 137.2234512,
      "maxLng": 163.2364054
    },
    {
      "name": "Gabon",
      "minLat": -4.1012261,
      "maxLat": 2.3182171,
      "minLng": 8.5002246,
      "maxLng": 14.539444
    },
    {
      "name": "United Kingdom",
      "minLat": 25.2223186,
      "maxLat": 25.2241651,
      "minLng": 55.1579517,
      "maxLng": 55.1606916
    },
    {
      "name": "Georgia",
      "minLat": 30.355757,
      "maxLat": 35.0013544,
      "minLng": -85.6051201,
      "maxLng": -80.7514321
    },
    {
      "name": "Guernsey",
      "minLat": 49.4155331,
      "maxLat": 49.5090776,
      "minLng": -2.6751703,
      "maxLng": -2.501814
    },
    {
      "name": "Ghana",
      "minLat": 4.5392525,
      "maxLat": 11.1748562,
      "minLng": -3.260786,
      "maxLng": 1.2732942
    },
    {
      "name": "Gibraltar",
      "minLat": 36.100807,
      "maxLat": 36.180807,
      "minLng": -5.3941295,
      "maxLng": -5.3141295
    },
    {
      "name": "Guinea",
      "minLat": 38.1240893,
      "maxLat": 38.1640893,
      "minLng": -77.4591124,
      "maxLng": -77.4191124
    },
    {
      "name": "Guadeloupe",
      "minLat": 15.8320085,
      "maxLat": 16.5144664,
      "minLng": -61.809764,
      "maxLng": -61.0003663
    },
    {
      "name": "Gambia",
      "minLat": 13.061,
      "maxLat": 13.8253137,
      "minLng": -17.0288254,
      "maxLng": -13.797778
    },
    {
      "name": "Guinea-Bissau",
      "minLat": 10.6514215,
      "maxLat": 12.6862384,
      "minLng": -16.894523,
      "maxLng": -13.6348777
    },
    {
      "name": "Equatorial Guinea",
      "minLat": -1.6732196,
      "maxLat": 3.989,
      "minLng": 5.4172943,
      "maxLng": 11.3598628
    },
    {
      "name": "Greece",
      "minLat": 34.7006096,
      "maxLat": 41.7488862,
      "minLng": 19.2477876,
      "maxLng": 29.7296986
    },
    {
      "name": "Grenada",
      "minLat": 11.786,
      "maxLat": 12.5966532,
      "minLng": -62.0065868,
      "maxLng": -61.1732143
    },
    {
      "name": "Greenland",
      "minLat": 43.0015105,
      "maxLat": 43.0770931,
      "minLng": -70.907562,
      "maxLng": -70.805801
    },
    {
      "name": "Guatemala",
      "minLat": 13.6345804,
      "maxLat": 17.8165947,
      "minLng": -92.3105242,
      "maxLng": -88.1755849
    },
    {
      "name": "French Guiana",
      "minLat": 2.112222,
      "maxLat": 5.7507111,
      "minLng": -54.60278,
      "maxLng": -51.6346139
    },
    {
      "name": "Guam",
      "minLat": 13.182335,
      "maxLat": 13.706179,
      "minLng": 144.563426,
      "maxLng": 145.009167
    },
    {
      "name": "Guyana",
      "minLat": 1.1710017,
      "maxLat": 8.6038842,
      "minLng": -61.414905,
      "maxLng": -56.4689543
    },
    {
      "name": "Hong Kong",
      "minLat": 22.1193278,
      "maxLat": 22.4393278,
      "minLng": 114.0028131,
      "maxLng": 114.3228131
    },
    {
      "name": "Heard Island and McDonald Islands",
      "minLat": -53.394741,
      "maxLat": -52.7030677,
      "minLng": 72.2460938,
      "maxLng": 74.1988754
    },
    {
      "name": "Honduras",
      "minLat": 12.9808485,
      "maxLat": 17.619526,
      "minLng": -89.3568207,
      "maxLng": -82.1729621
    },
    {
      "name": "Croatia",
      "minLat": 42.1765993,
      "maxLat": 46.555029,
      "minLng": 13.2104814,
      "maxLng": 19.4470842
    },
    {
      "name": "Haiti",
      "minLat": 21.7470269,
      "maxLat": 21.7870269,
      "minLng": -78.1147805,
      "maxLng": -78.0747805
    },
    {
      "name": "Hungary",
      "minLat": 45.737128,
      "maxLat": 48.585257,
      "minLng": 16.1138867,
      "maxLng": 22.8977094
    },
    {
      "name": "Indonesia",
      "minLat": -11.2085669,
      "maxLat": 6.2744496,
      "minLng": 94.7717124,
      "maxLng": 141.0194444
    },
    {
      "name": "Isle of Man",
      "minLat": 54.0539576,
      "maxLat": 54.4178705,
      "minLng": -4.7946845,
      "maxLng": -4.3076853
    },
    {
      "name": "India",
      "minLat": 6.5546079,
      "maxLat": 35.6745457,
      "minLng": 68.1113787,
      "maxLng": 97.395561
    },
    {
      "name": "British Indian Ocean Territory",
      "minLat": -7.6454079,
      "maxLat": -5.037066,
      "minLng": 71.036504,
      "maxLng": 72.7020157
    },
    {
      "name": "Ireland",
      "minLat": 51.222,
      "maxLat": 55.636,
      "minLng": -11.0133788,
      "maxLng": -5.6582363
    },
    {
      "name": "Iran, Islamic Republic of",
      "minLat": 24.8465103,
      "maxLat": 39.7816502,
      "minLng": 44.0318908,
      "maxLng": 63.3332704
    },
    {
      "name": "Iraq",
      "minLat": 29.0585661,
      "maxLat": 37.380932,
      "minLng": 38.7936719,
      "maxLng": 48.8412702
    },
    {
      "name": "Iceland",
      "minLat": 51.3863696,
      "maxLat": 51.3868275,
      "minLng": 0.5475318,
      "maxLng": 0.5479162
    },
    {
      "name": "Israel",
      "minLat": 29.4533796,
      "maxLat": 33.3356317,
      "minLng": 34.2674994,
      "maxLng": 35.8950234
    },
    {
      "name": "Italy",
      "minLat": 35.2889616,
      "maxLat": 47.0921462,
      "minLng": 6.6272658,
      "maxLng": 18.7844746
    },
    {
      "name": "Jamaica",
      "minLat": 16.5899443,
      "maxLat": 18.7256394,
      "minLng": -78.5782366,
      "maxLng": -75.7541143
    },
    {
      "name": "Jersey",
      "minLat": 49.1625179,
      "maxLat": 49.2621288,
      "minLng": -2.254512,
      "maxLng": -2.0104193
    },
    {
      "name": "Jordan",
      "minLat": 10.5378127,
      "maxLat": 10.6910595,
      "minLng": 122.4078085,
      "maxLng": 122.6356296
    },
    {
      "name": "Japan",
      "minLat": 20.2145811,
      "maxLat": 45.7112046,
      "minLng": 122.7141754,
      "maxLng": 154.205541
    },
    {
      "name": "Kazakhstan",
      "minLat": 40.5686476,
      "maxLat": 55.4421701,
      "minLng": 46.4932179,
      "maxLng": 87.3156316
    },
    {
      "name": "Kenya",
      "minLat": -4.8995204,
      "maxLat": 4.62,
      "minLng": 33.9098987,
      "maxLng": 41.899578
    },
    {
      "name": "Kyrgyzstan",
      "minLat": 39.1728437,
      "maxLat": 43.2667971,
      "minLng": 69.2649523,
      "maxLng": 80.2295793
    },
    {
      "name": "Cambodia",
      "minLat": 9.4752639,
      "maxLat": 14.6904224,
      "minLng": 102.3338282,
      "maxLng": 107.6276788
    },
    {
      "name": "Kiribati",
      "minLat": -7.0516717,
      "maxLat": 7.9483283,
      "minLng": -179.1645388,
      "maxLng": -164.1645388
    },
    {
      "name": "Saint Kitts and Nevis",
      "minLat": 16.895,
      "maxLat": 17.6158146,
      "minLng": -63.051129,
      "maxLng": -62.3303519
    },
    {
      "name": "Korea, Republic of",
      "minLat": 37.52806,
      "maxLat": 37.52816,
      "minLng": 126.89575,
      "maxLng": 126.89585
    },
    {
      "name": "Kuwait",
      "minLat": -12.0494672,
      "maxLat": -12.0094672,
      "minLng": -72.8801102,
      "maxLng": -72.8401102
    },
    {
      "name": "Lao People's Democratic Republic",
      "minLat": 13.9096752,
      "maxLat": 22.5086717,
      "minLng": 100.0843247,
      "maxLng": 107.6349989
    },
    {
      "name": "Lebanon",
      "minLat": 40.3199193,
      "maxLat": 40.355802,
      "minLng": -76.4508668,
      "maxLng": -76.391965
    },
    {
      "name": "Liberia",
      "minLat": 4.1555907,
      "maxLat": 8.5519861,
      "minLng": -11.6080764,
      "maxLng": -7.367323
    },
    {
      "name": "Libyan Arab Jamahiriya",
      "minLat": 19.5008138,
      "maxLat": 33.3545898,
      "minLng": 9.391081,
      "maxLng": 25.3770629
    },
    {
      "name": "Saint Lucia",
      "minLat": 13.508,
      "maxLat": 14.2725,
      "minLng": -61.2853867,
      "maxLng": -60.6669363
    },
    {
      "name": "Liechtenstein",
      "minLat": 47.0484291,
      "maxLat": 47.270581,
      "minLng": 9.4716736,
      "maxLng": 9.6357143
    },
    {
      "name": "Sri Lanka",
      "minLat": 25.2287738,
      "maxLat": 25.2303051,
      "minLng": 55.1813071,
      "maxLng": 55.1828523
    },
    {
      "name": "Lesotho",
      "minLat": -30.6772773,
      "maxLat": -28.570615,
      "minLng": 27.0114632,
      "maxLng": 29.4557099
    },
    {
      "name": "Lithuania",
      "minLat": 53.8967893,
      "maxLat": 56.4504213,
      "minLng": 20.653783,
      "maxLng": 26.8355198
    },
    {
      "name": "Luxembourg",
      "minLat": 49.4969821,
      "maxLat": 50.430377,
      "minLng": 4.9684415,
      "maxLng": 6.0344254
    },
    {
      "name": "Latvia",
      "minLat": 55.6746505,
      "maxLat": 58.0855688,
      "minLng": 20.6715407,
      "maxLng": 28.2414904
    },
    {
      "name": "Macao",
      "minLat": 25.2349583,
      "maxLat": 25.2368385,
      "minLng": 55.1803834,
      "maxLng": 55.1821684
    },
    {
      "name": "Saint Martin (French part)",
      "minLat": 17.8963535,
      "maxLat": 18.1902778,
      "minLng": -63.3605643,
      "maxLng": -62.7644063
    },
    {
      "name": "Morocco",
      "minLat": 21.3365321,
      "maxLat": 36.0505269,
      "minLng": -17.2551456,
      "maxLng": -0.998429
    },
    {
      "name": "Monaco",
      "minLat": 43.7247599,
      "maxLat": 43.7519311,
      "minLng": 7.4090279,
      "maxLng": 7.4398704
    },
    {
      "name": "Moldova, Republic of",
      "minLat": 46.6744934,
      "maxLat": 46.6745934,
      "minLng": 29.7521496,
      "maxLng": 29.7522496
    },
    {
      "name": "Madagascar",
      "minLat": -25.6071002,
      "maxLat": -11.9519693,
      "minLng": 43.2202072,
      "maxLng": 50.4862553
    },
    {
      "name": "Maldives",
      "minLat": 25.2252959,
      "maxLat": 25.2263769,
      "minLng": 55.1823199,
      "maxLng": 55.1837469
    },
    {
      "name": "Mexico",
      "minLat": 19.2726009,
      "maxLat": 19.5926009,
      "minLng": -99.2933416,
      "maxLng": -98.9733416
    },
    {
      "name": "Marshall Islands",
      "minLat": -0.5481258,
      "maxLat": 14.4518742,
      "minLng": 163.4985095,
      "maxLng": 178.4985095
    },
    {
      "name": "Macedonia, the former Yugoslav Republic of",
      "minLat": 40.8536596,
      "maxLat": 42.3735359,
      "minLng": 20.4529023,
      "maxLng": 23.034051
    },
    {
      "name": "Mali",
      "minLat": 10.147811,
      "maxLat": 25.001084,
      "minLng": -12.2402835,
      "maxLng": 4.2673828
    },
    {
      "name": "Malta",
      "minLat": 35.6029696,
      "maxLat": 36.2852706,
      "minLng": 13.9324226,
      "maxLng": 14.8267966
    },
    {
      "name": "Myanmar",
      "minLat": 9.4399432,
      "maxLat": 28.547835,
      "minLng": 92.1719423,
      "maxLng": 101.1700796
    },
    {
      "name": "Montenegro",
      "minLat": -29.8446455,
      "maxLat": -29.5743342,
      "minLng": -51.662,
      "maxLng": -51.3498193
    },
    {
      "name": "Mongolia",
      "minLat": 41.5800276,
      "maxLat": 52.1496,
      "minLng": 87.73762,
      "maxLng": 119.931949
    },
    {
      "name": "Northern Mariana Islands",
      "minLat": 14.036565,
      "maxLat": 20.616556,
      "minLng": 144.813338,
      "maxLng": 146.154418
    },
    {
      "name": "Mozambique",
      "minLat": 19.038889,
      "maxLat": 19.078889,
      "minLng": -96.274167,
      "maxLng": -96.234167
    },
    {
      "name": "Mauritania",
      "minLat": 25.2143602,
      "maxLat": 25.2163939,
      "minLng": 55.1665334,
      "maxLng": 55.1690669
    },
    {
      "name": "Montserrat",
      "minLat": 16.475,
      "maxLat": 17.0152978,
      "minLng": -62.450667,
      "maxLng": -61.9353818
    },
    {
      "name": "Martinique",
      "minLat": 14.3948596,
      "maxLat": 14.8787029,
      "minLng": -61.2290815,
      "maxLng": -60.8095833
    },
    {
      "name": "Mauritius",
      "minLat": -20.725,
      "maxLat": -10.138,
      "minLng": 56.3825151,
      "maxLng": 63.7151319
    },
    {
      "name": "Malawi",
      "minLat": -17.1296031,
      "maxLat": -9.3683261,
      "minLng": 32.6703616,
      "maxLng": 35.9185731
    },
    {
      "name": "Malaysia",
      "minLat": -5.1076241,
      "maxLat": 9.8923759,
      "minLng": 105.3471939,
      "maxLng": 120.3471939
    },
    {
      "name": "Mayotte",
      "minLat": -13.0210119,
      "maxLat": -12.6365902,
      "minLng": 45.0183298,
      "maxLng": 45.2999917
    },
    {
      "name": "Namibia",
      "minLat": -28.96945,
      "maxLat": -16.9634855,
      "minLng": 11.5280384,
      "maxLng": 25.2617671
    },
    {
      "name": "New Caledonia",
      "minLat": 33.0351363,
      "maxLat": 33.0751363,
      "minLng": -92.6876556,
      "maxLng": -92.6476556
    },
    {
      "name": "Niger",
      "minLat": 11.693756,
      "maxLat": 23.517178,
      "minLng": 0.1689653,
      "maxLng": 15.996667
    },
    {
      "name": "Norfolk Island",
      "minLat": -29.333,
      "maxLat": -28.796,
      "minLng": 167.6873878,
      "maxLng": 168.2249543
    },
    {
      "name": "Nigeria",
      "minLat": 4.0690959,
      "maxLat": 13.885645,
      "minLng": 2.676932,
      "maxLng": 14.678014
    },
    {
      "name": "Nicaragua",
      "minLat": 10.7076565,
      "maxLat": 15.0331183,
      "minLng": -87.901532,
      "maxLng": -82.6227023
    },
    {
      "name": "Niue",
      "minLat": -19.0840514,
      "maxLat": -19.0739661,
      "minLng": -169.9383436,
      "maxLng": -169.9129672
    },
    {
      "name": "Netherlands",
      "minLat": 11.825,
      "maxLat": 53.7253321,
      "minLng": -68.6255319,
      "maxLng": 7.2274985
    },
    {
      "name": "Norway",
      "minLat": 57.7590052,
      "maxLat": 71.3848787,
      "minLng": 4.0875274,
      "maxLng": 31.7614911
    },
    {
      "name": "Nepal",
      "minLat": 26.3477581,
      "maxLat": 30.446945,
      "minLng": 80.0586226,
      "maxLng": 88.2015257
    },
    {
      "name": "Nauru",
      "minLat": -0.5541334,
      "maxLat": -0.5025906,
      "minLng": 166.9091794,
      "maxLng": 166.9589235
    },
    {
      "name": "New Zealand",
      "minLat": -52.8213687,
      "maxLat": -29.0303303,
      "minLng": -179.059153,
      "maxLng": 179.3643594
    },
    {
      "name": "Oman",
      "minLat": 25.2268538,
      "maxLat": 25.2291352,
      "minLng": 55.1759911,
      "maxLng": 55.1773672
    },
    {
      "name": "Pakistan",
      "minLat": 23.5393916,
      "maxLat": 37.084107,
      "minLng": 60.872855,
      "maxLng": 77.1203914
    },
    {
      "name": "Panama",
      "minLat": 35.246906,
      "maxLat": 35.286906,
      "minLng": -119.0767707,
      "maxLng": -119.0367707
    },
    {
      "name": "Pitcairn",
      "minLat": -25.1306736,
      "maxLat": -23.8655769,
      "minLng": -130.8049862,
      "maxLng": -124.717534
    },
    {
      "name": "Peru",
      "minLat": 41.309511,
      "maxLat": 41.38197,
      "minLng": -89.164781,
      "maxLng": -89.105652
    },
    {
      "name": "Philippines",
      "minLat": 4.2158064,
      "maxLat": 21.3217806,
      "minLng": 114.0952145,
      "maxLng": 126.8072562
    },
    {
      "name": "Palau",
      "minLat": 42.5481153,
      "maxLat": 42.5844284,
      "minLng": 2.9351868,
      "maxLng": 2.9840518
    },
    {
      "name": "Papua New Guinea",
      "minLat": -13.1816069,
      "maxLat": 1.8183931,
      "minLng": 136.7489081,
      "maxLng": 151.7489081
    },
    {
      "name": "Poland",
      "minLat": 49.0020468,
      "maxLat": 55.0336963,
      "minLng": 14.1229707,
      "maxLng": 24.145783
    },
    {
      "name": "Puerto Rico",
      "minLat": 17.9268695,
      "maxLat": 18.5159789,
      "minLng": -67.271492,
      "maxLng": -65.5897525
    },
    {
      "name": "Korea, Democratic People's Republic of",
      "minLat": 37.5867855,
      "maxLat": 43.0089642,
      "minLng": 124.0913902,
      "maxLng": 130.924647
    },
    {
      "name": "Portugal",
      "minLat": 29.8288021,
      "maxLat": 42.1543112,
      "minLng": -31.5575303,
      "maxLng": -6.1891593
    },
    {
      "name": "Paraguay",
      "minLat": -27.6063935,
      "maxLat": -19.2876472,
      "minLng": -62.6442036,
      "maxLng": -54.258
    },
    {
      "name": "Palestinian Territory, Occupied",
      "minLat": 31.2201289,
      "maxLat": 32.5521479,
      "minLng": 34.0689732,
      "maxLng": 35.5739235
    },
    {
      "name": "French Polynesia",
      "minLat": -28.0990232,
      "maxLat": -7.6592173,
      "minLng": -154.9360599,
      "maxLng": -134.244799
    },
    {
      "name": "Qatar",
      "minLat": 25.2271767,
      "maxLat": 25.2289841,
      "minLng": 55.1726803,
      "maxLng": 55.1741485
    },
    {
      "name": "Réunion",
      "minLat": -21.3897308,
      "maxLat": -20.8717136,
      "minLng": 55.2164268,
      "maxLng": 55.8366924
    },
    {
      "name": "Romania",
      "minLat": 43.618682,
      "maxLat": 48.2653964,
      "minLng": 20.2619773,
      "maxLng": 30.0454257
    },
    {
      "name": "Russian Federation",
      "minLat": 41.1850968,
      "maxLat": 82.0586232,
      "minLng": 19.6389,
      "maxLng": 180
    },
    {
      "name": "Rwanda",
      "minLat": -2.8389804,
      "maxLat": -1.0474083,
      "minLng": 28.8617546,
      "maxLng": 30.8990738
    },
    {
      "name": "Saudi Arabia",
      "minLat": 14.4840316,
      "maxLat": 14.4846897,
      "minLng": 121.0177023,
      "maxLng": 121.0265441
    },
    {
      "name": "Sudan",
      "minLat": 10.88,
      "maxLat": 10.92,
      "minLng": 6.48,
      "maxLng": 6.52
    },
    {
      "name": "Senegal",
      "minLat": 12.2372838,
      "maxLat": 16.6919712,
      "minLng": -17.7862419,
      "maxLng": -11.3458996
    },
    {
      "name": "Singapore",
      "minLat": 1.1304753,
      "maxLat": 1.4504753,
      "minLng": 103.6920359,
      "maxLng": 104.0120359
    },
    {
      "name": "South Georgia and the South Sandwich Islands",
      "minLat": -59.684,
      "maxLat": -53.3500755,
      "minLng": -42.354739,
      "maxLng": -25.8468303
    },
    {
      "name": "Saint Helena, Ascension and Tristan da Cunha",
      "minLat": -16.23,
      "maxLat": -15.704,
      "minLng": -5.9973424,
      "maxLng": -5.4234153
    },
    {
      "name": "Svalbard and Jan Mayen",
      "minLat": 70.6260825,
      "maxLat": 81.028076,
      "minLng": -9.6848146,
      "maxLng": 34.6891253
    },
    {
      "name": "Solomon Islands",
      "minLat": -13.2424298,
      "maxLat": -4.81085,
      "minLng": 155.3190556,
      "maxLng": 170.3964667
    },
    {
      "name": "Sierra Leone",
      "minLat": 6.755,
      "maxLat": 9.999973,
      "minLng": -13.5003389,
      "maxLng": -10.271683
    },
    {
      "name": "El Salvador",
      "minLat": 12.976046,
      "maxLat": 14.4510488,
      "minLng": -90.1790975,
      "maxLng": -87.6351394
    },
    {
      "name": "San Marino",
      "minLat": 43.8937002,
      "maxLat": 43.992093,
      "minLng": 12.4033246,
      "maxLng": 12.5160665
    },
    {
      "name": "Somalia",
      "minLat": -13.200556,
      "maxLat": -13.160556,
      "minLng": 15.246667,
      "maxLng": 15.286667
    },
    {
      "name": "Saint Pierre and Miquelon",
      "minLat": 46.5507173,
      "maxLat": 47.365,
      "minLng": -56.6972961,
      "maxLng": -55.9033333
    },
    {
      "name": "Serbia",
      "minLat": 42.2322435,
      "maxLat": 46.1900524,
      "minLng": 18.8142875,
      "maxLng": 23.006309
    },
    {
      "name": "Sao Tome and Principe",
      "minLat": -0.2135137,
      "maxLat": 1.9257601,
      "minLng": 6.260642,
      "maxLng": 7.6704783
    },
    {
      "name": "Suriname",
      "minLat": 1.8312802,
      "maxLat": 6.225,
      "minLng": -58.070833,
      "maxLng": -53.8433358
    },
    {
      "name": "Slovakia",
      "minLat": 47.7314286,
      "maxLat": 49.6138162,
      "minLng": 16.8331891,
      "maxLng": 22.56571
    },
    {
      "name": "Slovenia",
      "minLat": 45.4214242,
      "maxLat": 46.8766816,
      "minLng": 13.3754696,
      "maxLng": 16.5967702
    },
    {
      "name": "Sweden",
      "minLat": 55.1331192,
      "maxLat": 69.0599699,
      "minLng": 10.5930952,
      "maxLng": 24.1776819
    },
    {
      "name": "Swaziland",
      "minLat": 25.2156672,
      "maxLat": 25.217255,
      "minLng": 55.1807318,
      "maxLng": 55.18286
    },
    {
      "name": "Seychelles",
      "minLat": 25.2237725,
      "maxLat": 25.2250726,
      "minLng": 55.1816849,
      "maxLng": 55.184065
    },
    {
      "name": "Syrian Arab Republic",
      "minLat": 27.1401861,
      "maxLat": 42.1401861,
      "minLng": 31.5494106,
      "maxLng": 46.5494106
    },
    {
      "name": "Turks and Caicos Islands",
      "minLat": 20.9553418,
      "maxLat": 22.1630989,
      "minLng": -72.6799046,
      "maxLng": -70.8643591
    },
    {
      "name": "Chad",
      "minLat": 7.44107,
      "maxLat": 23.4975,
      "minLng": 13.47348,
      "maxLng": 24
    },
    {
      "name": "Togo",
      "minLat": 5.926547,
      "maxLat": 11.1395102,
      "minLng": -0.1439746,
      "maxLng": 1.8087605
    },
    {
      "name": "Thailand",
      "minLat": 5.612851,
      "maxLat": 20.4648337,
      "minLng": 97.3438072,
      "maxLng": 105.636812
    },
    {
      "name": "Tajikistan",
      "minLat": 36.6711153,
      "maxLat": 41.0450935,
      "minLng": 67.3332775,
      "maxLng": 75.1539563
    },
    {
      "name": "Tokelau",
      "minLat": -9.6442499,
      "maxLat": -8.3328631,
      "minLng": -172.7213673,
      "maxLng": -170.9797586
    },
    {
      "name": "Turkmenistan",
      "minLat": 35.129093,
      "maxLat": 42.7975571,
      "minLng": 52.335076,
      "maxLng": 66.6895177
    },
    {
      "name": "Timor-Leste",
      "minLat": -6.3294157,
      "maxLat": -6.3284839,
      "minLng": 106.9549541,
      "maxLng": 106.9551755
    },
    {
      "name": "Tonga",
      "minLat": -24.1034499,
      "maxLat": -15.3655722,
      "minLng": -179.3866055,
      "maxLng": -173.5295458
    },
    {
      "name": "Trinidad and Tobago",
      "minLat": 9.8732106,
      "maxLat": 11.5628372,
      "minLng": -62.083056,
      "maxLng": -60.2895848
    },
    {
      "name": "Tunisia",
      "minLat": 30.230236,
      "maxLat": 37.7612052,
      "minLng": 7.5219807,
      "maxLng": 11.8801133
    },
    {
      "name": "Turkey",
      "minLat": 35.8076804,
      "maxLat": 42.297,
      "minLng": 25.6212891,
      "maxLng": 44.8176638
    },
    {
      "name": "Tuvalu",
      "minLat": -10.9939389,
      "maxLat": -5.4369611,
      "minLng": -180,
      "maxLng": 180
    },
    {
      "name": "Taiwan, Province of China",
      "minLat": 50.8832129,
      "maxLat": 50.8833129,
      "minLng": 6.0296969,
      "maxLng": 6.0297969
    },
    {
      "name": "Tanzania, United Republic of",
      "minLat": -6.8127308,
      "maxLat": -6.812538,
      "minLng": 39.2895223,
      "maxLng": 39.2897105
    },
    {
      "name": "Uganda",
      "minLat": -1.4823179,
      "maxLat": 4.2340766,
      "minLng": 29.573433,
      "maxLng": 35.000308
    },
    {
      "name": "Ukraine",
      "minLat": 44.184598,
      "maxLat": 52.3791473,
      "minLng": 22.137059,
      "maxLng": 40.2275801
    },
    {
      "name": "United States Minor Outlying Islands",
      "minLat": 6.1779744,
      "maxLat": 6.6514388,
      "minLng": -162.6816297,
      "maxLng": -162.1339885
    },
    {
      "name": "Uruguay",
      "minLat": -35.7824481,
      "maxLat": -30.0853962,
      "minLng": -58.4948438,
      "maxLng": -53.0755833
    },
    {
      "name": "United States",
      "minLat": 24.9493,
      "maxLat": 49.5904,
      "minLng": -125.0011,
      "maxLng": -66.9326
    },
    {
      "name": "Uzbekistan",
      "minLat": 37.1821164,
      "maxLat": 45.590118,
      "minLng": 55.9977865,
      "maxLng": 73.1397362
    },
    {
      "name": "Holy See (Vatican City State)",
      "minLat": 41.9002044,
      "maxLat": 41.9073912,
      "minLng": 12.4457442,
      "maxLng": 12.4583653
    },
    {
      "name": "Saint Vincent and the Grenadines",
      "minLat": 12.5166548,
      "maxLat": 13.583,
      "minLng": -61.6657471,
      "maxLng": -60.9094146
    },
    {
      "name": "Venezuela, Bolivarian Republic of",
      "minLat": 0.647529,
      "maxLat": 15.9158431,
      "minLng": -73.3529632,
      "maxLng": -59.5427079
    },
    {
      "name": "Virgin Islands, British",
      "minLat": 17.623468,
      "maxLat": 18.464984,
      "minLng": -65.159094,
      "maxLng": -64.512674
    },
    {
      "name": "Virgin Islands, U.S.",
      "minLat": 17.623468,
      "maxLat": 18.464984,
      "minLng": -65.159094,
      "maxLng": -64.512674
    },
    {
      "name": "Viet Nam",
      "minLat": 8.1790665,
      "maxLat": 23.393395,
      "minLng": 102.14441,
      "maxLng": 114.3337595
    },
    {
      "name": "Vanuatu",
      "minLat": -20.4627425,
      "maxLat": -12.8713777,
      "minLng": 166.3355255,
      "maxLng": 170.449982
    },
    {
      "name": "Wallis and Futuna",
      "minLat": -14.5630748,
      "maxLat": -12.9827961,
      "minLng": -178.3873749,
      "maxLng": -175.9190391
    },
    {
      "name": "Samoa",
      "minLat": 40.7987372,
      "maxLat": 40.8387372,
      "minLng": -124.2064518,
      "maxLng": -124.1664518
    },
    {
      "name": "Yemen",
      "minLat": 11.9084802,
      "maxLat": 19,
      "minLng": 41.60825,
      "maxLng": 54.7389375
    },
    {
      "name": "South Africa",
      "minLat": -47.1788335,
      "maxLat": -22.1250301,
      "minLng": 16.3335213,
      "maxLng": 38.2898954
    },
    {
      "name": "Zambia",
      "minLat": -18.0765945,
      "maxLat": -8.2712822,
      "minLng": 21.9993509,
      "maxLng": 33.701111
    },
    {
      "name": "Zimbabwe",
      "minLat": -22.4241096,
      "maxLat": -15.6097033,
      "minLng": 25.2373,
      "maxLng": 33.0683413
    }
  ]